,address,agent,bathrooms,bedrooms,building_size,built_date,car_space,full_address,land_size,lat,lng,postcode,price,property_type,rent,rent_date,sale_id,sold_date,state,suburb,perth,east_perth,west_perth,northbridge,crawley,nedlands
1,1/10 Wright Street,not recorded,1,2,62,1979,1,1/10 Wright Street Perth WA 6000,62,-31.940382399999997,115.8737132,6000,355000,Townhouse,340,2018-10,2,2020,WA,Perth,1,0,0,0,0,0
6,10 Pisconeri Street,Daniel Porcaro,2,4,289,2008,3,10 Pisconeri Street Perth WA 6000,302,-31.9485212,115.86750020000001,6000,1308000,House,700,2018-04,7,2021,WA,Perth,1,0,0,0,0,0
7,10 Robinson Avenue,Claude Iaconi,2,2,174,1995,2,10 Robinson Avenue Perth WA 6000,241,-31.9442908,115.8642977,6000,880000,House,550,2018-10,8,2020,WA,Perth,1,0,0,0,0,0
8,10/10 Wright Street,not recorded,1,2,62,1979,1,10/10 Wright Street Perth WA 6000,62,-31.9439724,115.87193090000001,6000,447500,Townhouse,460,2013-06,9,2020,WA,Perth,1,0,0,0,0,0
21,11 Lindsay Street,Meryl Carter,2,3,155,2010,2,11 Lindsay Street Perth WA 6000,240,-31.946328,115.86301270000001,6000,1100000,House,780,2021-01,22,2021,WA,Perth,1,0,0,0,0,0
23,11/18 Robinson Avenue,Graeme Correy,1,3,139,2002,1,11/18 Robinson Avenue Perth WA 6000,201,-31.944274600000004,115.8638426,6000,620000,Townhouse,475,2019-09,24,2021,WA,Perth,1,0,0,0,0,0
30,119 Summers Street,not recorded,1,3,125,1900,0,119 Summers Street Perth WA 6000,506,-31.945323899999998,115.8744723,6000,830000,House,0,1900-01,31,2020,WA,Perth,1,0,0,0,0,0
31,12 Lane Street,not recorded,1,3,334,1930,2,12 Lane Street Perth WA 6000,351,-31.942709899999997,115.86448670000001,6000,780000,House,480,2014-08,32,2020,WA,Perth,1,0,0,0,0,0
32,12 Wade Street,Annie Kowal,2,4,136,1996,2,12 Wade Street Perth WA 6000,152,-31.9424538,115.86392859999998,6000,680000,Townhouse,625,2015-12,33,2021,WA,Perth,1,0,0,0,0,0
39,123 Glendower Street,Matt Seabrook,2,4,161,1900,2,123 Glendower Street Perth WA 6000,278,-31.93808,115.85876,6000,975000,House,0,1900-01,40,2020,WA,Perth,1,0,0,0,0,0
45,14 Hope Street,Nadija Begovich,1,2,131,1930,2,14 Hope Street Perth WA 6000,409,-31.9419271,115.8593044,6000,790000,House,0,1900-01,46,2020,WA,Perth,1,0,0,0,0,0
49,14/180 Stirling Street,not recorded,1,1,48,2013,1,14/180 Stirling Street Perth WA 6000,81,-31.9470657,115.8661848,6000,335000,House,360,2020-08,50,2021,WA,Perth,1,0,0,0,0,0
53,15/114 Terrace Road,Davide Palermo,1,1,54,1945,0,15/114 Terrace Road Perth WA 6000,54,-31.959761999999998,115.8673101,6000,210000,Villa,250,2016-09,54,2021,WA,Perth,1,0,0,0,0,0
56,1-5/55 Gladstone Street,not recorded,1,1,80,1999,1,1-5/55 Gladstone Street Perth WA 6000,110,-31.9467168,115.87206950000001,6000,1220000,House,0,1900-01,57,2020,WA,Perth,1,0,0,0,0,0
60,154A Lake Street,not recorded,2,3,125,1995,2,154A Lake Street Perth WA 6000,190,-31.943762699999997,115.85954890000001,6000,712500,House,595,2017-04,61,2020,WA,Perth,1,0,0,0,0,0
64,16 Hope Street,Nadija Begovich,1,3,129,1930,2,16 Hope Street Perth WA 6000,403,-31.94166,115.8589,6000,845000,House,380,2009-08,65,2020,WA,Perth,1,0,0,0,0,0
65,16 Robinson Avenue,not recorded,2,3,116,1993,2,16 Robinson Avenue Perth WA 6000,305,-31.9442642,115.8640398,6000,760000,House,768,2017-01,66,2020,WA,Perth,1,0,0,0,0,0
71,166 Lake Street,Daniel Porcaro,2,3,188,1897,1,166 Lake Street Perth WA 6000,197,-31.9433325,115.85996019999999,6000,1000000,House,0,1900-01,72,2020,WA,Perth,1,0,0,0,0,0
72,167 Lake Street,not recorded,2,5,309,1902,1,167 Lake Street Perth WA 6000,369,-31.9429874,115.8595106,6000,1825000,House,0,1900-01,73,2020,WA,Perth,1,0,0,0,0,0
76,172 Lake Street,Daniel Porcaro,2,3,208,1897,0,172 Lake Street Perth WA 6000,195,-31.9431637,115.8599975,6000,1050000,House,0,1900-01,77,2021,WA,Perth,1,0,0,0,0,0
77,18 Church Street,Shaun Pratt,1,2,101,1920,1,18 Church Street Perth WA 6000,176,-31.9434635,115.85833400000001,6000,890000,House,590,2021-05,78,2021,WA,Perth,1,0,0,0,0,0
88,19/65 Palmerston Street,not recorded,2,3,118,2000,2,19/65 Palmerston Street Perth WA 6000,378,-31.943116600000003,115.8571209,6000,575000,Townhouse,480,2018-11,89,2020,WA,Perth,1,0,0,0,0,0
91,193 Lake Street,not recorded,1,3,90,1920,0,193 Lake Street Perth WA 6000,273,-31.9422,115.86,6000,820000,House,0,1900-01,92,2020,WA,Perth,1,0,0,0,0,0
93,195 Lake Street,not recorded,1,3,90,1920,2,195 Lake Street Perth WA 6000,268,-31.942140000000002,115.86003999999998,6000,860000,House,0,1900-01,94,2021,WA,Perth,1,0,0,0,0,0
97,2/142 Palmerston Street,Claude Iaconi,3,3,178,1999,2,2/142 Palmerston Street Perth WA 6000,244,-31.940459999999998,115.85943,6000,770000,House,500,2009-12,98,2021,WA,Perth,1,0,0,0,0,0
99,20/569 Wellington Street,not recorded,1,1,73,2001,0,20/569 Wellington Street Perth WA 6000,79,-31.951097700000002,115.8561876,6000,360500,House,345,2020-02,100,2021,WA,Perth,1,0,0,0,0,0
100,200 Bulwer Street,not recorded,1,2,125,1935,1,200 Bulwer Street Perth WA 6000,408,-31.9404358,115.8628741,6000,940000,House,0,1900-01,101,2020,WA,Perth,1,0,0,0,0,0
105,206A Bulwer Street,not recorded,2,3,160,1996,2,206A Bulwer Street Perth WA 6000,236,-31.94027,115.86261,6000,680500,House,410,2017-04,106,2020,WA,Perth,1,0,0,0,0,0
108,21 Myrtle Street,Annette O'Brien-Oxley,1,3,93,1981,2,21 Myrtle Street Perth WA 6000,104,-31.939459999999997,115.85826999999999,6000,802000,Townhouse,590,2018-10,109,2021,WA,Perth,1,0,0,0,0,0
110,21/378 Beaufort Street,not recorded,2,2,68,2012,1,21/378 Beaufort Street Perth WA 6000,95,-31.9421489,115.8676567,6000,420000,House,400,2018-07,111,2020,WA,Perth,1,0,0,0,0,0
112,217 Brisbane Street,not recorded,1,2,75,1940,1,217 Brisbane Street Perth WA 6000,219,-31.9416256,115.85992820000001,6000,770000,House,550,2020-04,113,2020,WA,Perth,1,0,0,0,0,0
119,226 Brisbane Street,not recorded,1,2,113,1983,1,226 Brisbane Street Perth WA 6000,490,-31.941106800000004,115.85974340000001,6000,620000,House,0,1900-01,120,2020,WA,Perth,1,0,0,0,0,0
120,23 Knebworth Avenue,Rob Edwards,1,2,113,1925,0,23 Knebworth Avenue Perth WA 6000,264,-31.9405591,115.86473400000001,6000,735000,House,500,2020-05,121,2020,WA,Perth,1,0,0,0,0,0
126,247 Lake Street,not recorded,2,2,162,2003,2,247 Lake Street Perth WA 6000,323,-31.939870000000003,115.86153999999999,6000,1080000,House,0,1900-01,127,2020,WA,Perth,1,0,0,0,0,0
127,25 Moir Street,not recorded,1,3,113,1920,1,25 Moir Street Perth WA 6000,278,-31.9430712,115.8605024,6000,784000,House,470,2019-01,128,2020,WA,Perth,1,0,0,0,0,0
128,25/226 Beaufort Street,not recorded,2,2,81,2011,1,25/226 Beaufort Street Perth WA 6000,110,-31.9459945,115.8653102,6000,490000,House,460,2019-11,129,2021,WA,Perth,1,0,0,0,0,0
133,27 Lane Street,not recorded,1,2,79,1918,0,27 Lane Street Perth WA 6000,378,-31.9420538,115.864526,6000,615000,House,0,1900-01,134,2020,WA,Perth,1,0,0,0,0,0
136,28 Myrtle Street,not recorded,1,2,115,1982,3,28 Myrtle Street Perth WA 6000,602,-31.93924,115.85813,6000,805000,House,550,2016-05,137,2020,WA,Perth,1,0,0,0,0,0
146,2a Randell Street,not recorded,3,4,321,1996,3,2a Randell Street Perth WA 6000,760,-31.940031400000002,115.85900179999999,6000,775000,House,0,1900-01,147,2020,WA,Perth,1,0,0,0,0,0
148,3 Brookman Street,not recorded,1,4,135,1920,1,3 Brookman Street Perth WA 6000,301,-31.9444071,115.8604936,6000,895000,House,0,1900-01,149,2020,WA,Perth,1,0,0,0,0,0
154,30 Randell Street,not recorded,1,2,87,1955,0,30 Randell Street Perth WA 6000,291,-31.939615000000003,115.85803359999998,6000,715000,House,0,1900-01,155,2020,WA,Perth,1,0,0,0,0,0
157,32 Wade Street,not recorded,1,3,124,1935,1,32 Wade Street Perth WA 6000,304,-31.9420179,115.8641679,6000,710000,House,0,1900-01,158,2020,WA,Perth,1,0,0,0,0,0
164,35 Windsor Street,not recorded,1,4,179,1930,3,35 Windsor Street Perth WA 6000,1114,-31.944225899999996,115.87437990000001,6000,1350000,House,0,1900-01,165,2020,WA,Perth,1,0,0,0,0,0
182,43 West Parade,not recorded,1,2,101,1920,3,43 West Parade Perth WA 6000,233,-31.943063899999995,115.87613629999998,6000,620000,House,395,2017-06,183,2020,WA,Perth,1,0,0,0,0,0
185,45/34 Palmerston Street,ROB STEFANOVSKI,2,2,120,1999,1,45/34 Palmerston Street Perth WA 6000,160,-31.9438988,115.8577122,6000,585000,House,580,2014-04,186,2021,WA,Perth,1,0,0,0,0,0
190,4B Stuart Street,not recorded,1,3,103,1989,1,4B Stuart Street Perth WA 6000,172,-31.94316,115.8593,6000,680000,House,450,2020-04,191,2020,WA,Perth,1,0,0,0,0,0
191,4E/811 Hay Street,not recorded,1,1,41,2001,0,4E/811 Hay Street Perth WA 6000,868,-31.953105800000003,115.8553788,6000,215000,House,300,2020-12,192,2020,WA,Perth,1,0,0,0,0,0
195,5/18 Robinson Avenue,not recorded,2,3,138,2002,2,5/18 Robinson Avenue Perth WA 6000,212,-31.944274600000004,115.8638426,6000,765000,Townhouse,0,1900-01,196,2020,WA,Perth,1,0,0,0,0,0
205,52/101 Murray Street,not recorded,1,1,46,2011,1,52/101 Murray Street Perth WA 6000,46,-31.954226199999997,115.8620192,6000,265000,House,360,2018-01,206,2020,WA,Perth,1,0,0,0,0,0
211,56 Bulwer Street,Helen Bond,1,2,105,1910,2,56 Bulwer Street Perth WA 6000,316,-31.9432154,115.86914660000001,6000,800000,House,0,1900-01,212,2021,WA,Perth,1,0,0,0,0,0
213,56/34 Palmerston Street,not recorded,2,2,132,1999,1,56/34 Palmerston Street Perth WA 6000,196,-31.9438988,115.8577122,6000,505000,Townhouse,0,1900-01,214,2020,WA,Perth,1,0,0,0,0,0
223,6 Edith Street,Sven Robertson,2,4,166,1999,2,6 Edith Street Perth WA 6000,224,-31.940960600000004,115.86275590000001,6000,700000,Townhouse,750,2017-07,224,2020,WA,Perth,1,0,0,0,0,0
234,61 Lindsay Street,not recorded,2,3,194,1935,2,61 Lindsay Street Perth WA 6000,300,-31.945044,115.86420259999998,6000,1310000,House,0,1900-01,235,2021,WA,Perth,1,0,0,0,0,0
244,66b Robinson Avenue,Claude Iaconi,1,3,120,1991,2,66b Robinson Avenue Perth WA 6000,305,-31.9432206,115.8615884,6000,775000,House,0,1900-01,245,2020,WA,Perth,1,0,0,0,0,0
248,7/117 Lake Street,not recorded,2,2,92,2000,1,7/117 Lake Street Perth WA 6000,114,-31.9445343,115.8585997,6000,500000,Townhouse,0,1900-01,249,2020,WA,Perth,1,0,0,0,0,0
251,7/2 Braid Street,Beaufort Team - Pam & Jodi,1,2,93,2008,1,7/2 Braid Street Perth WA 6000,130,-31.949183,115.8679775,6000,505000,Townhouse,440,2011-07,252,2021,WA,Perth,1,0,0,0,0,0
258,79 Glendower Street,not recorded,3,3,156,1982,1,79 Glendower Street Perth WA 6000,197,-31.939023600000002,115.8610182,6000,1350000,House,800,2011-09,259,2020,WA,Perth,1,0,0,0,0,0
266,81/22 St Georges Terrace,not recorded,2,2,90,2009,1,81/22 St Georges Terrace Perth WA 6000,120,-31.9564827,115.8638659,6000,585000,House,650,2020-10,267,2020,WA,Perth,1,0,0,0,0,0
273,9 Dangan Street,not recorded,2,3,102,1920,2,9 Dangan Street Perth WA 6000,357,-31.9405723,115.8599629,6000,820000,House,0,1900-01,274,2020,WA,Perth,1,0,0,0,0,0
274,9 Throssell Street,not recorded,1,3,113,1925,2,9 Throssell Street Perth WA 6000,491,-31.9373583,115.8593159,6000,1450000,House,690,2021-04,275,2021,WA,Perth,1,0,0,0,0,0
290,42/33 MALCOLM STREET,not recorded,2,3,140,2010,2,42/33 MALCOLM STREET West Perth WA 6005,158,-31.9534429,115.8473896,6005,1050000,House,1200,2019-02,291,2021,WA,West Perth,0,0,1,0,0,0
291,6/16 Carr Street,Ashby Farrell,2,3,107,1990,2,6/16 Carr Street West Perth WA 6005,190,-31.940582899999995,115.854431,6005,550000,Townhouse,0,1900-01,292,2021,WA,West Perth,0,0,1,0,0,0
297,11/129 Carr Street,not recorded,1,2,82,1991,1,11/129 Carr Street West Perth WA 6005,156,-31.938419800000002,115.84824840000002,6005,420000,Townhouse,0,1900-01,298,2021,WA,West Perth,0,0,1,0,0,0
305,3/143 Carr Street,Richard Self,2,3,113,1993,2,3/143 Carr Street West Perth WA 6005,168,-31.938159999999996,115.84741000000001,6005,610000,Townhouse,525,2020-01,306,2021,WA,West Perth,0,0,1,0,0,0
318,22 Florence Place,Peter Wright,2,3,141,1915,2,22 Florence Place West Perth WA 6005,195,-31.9369522,115.8516018,6005,790000,Townhouse,775,2021-05,319,2021,WA,West Perth,0,0,1,0,0,0
320,15A Victoria Street,Joe Raschilla,2,3,144,1994,2,15A Victoria Street West Perth WA 6005,189,-31.938443,115.85356000000002,6005,755000,Townhouse,450,2014-08,321,2021,WA,West Perth,0,0,1,0,0,0
324,3/2a Janet Street,Richard Self,2,3,104,1998,1,3/2a Janet Street West Perth WA 6005,188,-31.93788,115.85231,6005,550000,Townhouse,400,2019-06,325,2021,WA,West Perth,0,0,1,0,0,0
329,3/26 Florence Street,Claude Iaconi,1,3,110,1985,2,3/26 Florence Street West Perth WA 6005,183,-31.93773,115.85096999999999,6005,570000,Townhouse,0,1900-01,330,2021,WA,West Perth,0,0,1,0,0,0
334,32 Oak Lane,Carla Yazmadjian,1,3,115,2000,1,32 Oak Lane West Perth WA 6005,172,-31.936664399999998,115.85225120000001,6005,485000,Townhouse,550,2021-04,335,2021,WA,West Perth,0,0,1,0,0,0
344,58/4 Delhi Street,not recorded,1,1,52,2006,1,58/4 Delhi Street West Perth WA 6005,76,-31.9452984,115.8455682,6005,338000,House,460,2021-03,345,2021,WA,West Perth,0,0,1,0,0,0
345,209A Vincent Street,Peter Wright,2,3,146,2020,2,209A Vincent Street West Perth WA 6005,199,-31.9366675,115.85182979999999,6005,770000,Townhouse,0,1900-01,346,2021,WA,West Perth,0,0,1,0,0,0
347,24 Florence Street,Claude Iaconi,3,4,210,1930,3,24 Florence Street West Perth WA 6005,783,-31.937872600000002,115.8508594,6005,1700000,House,1600,2017-02,348,2021,WA,West Perth,0,0,1,0,0,0
349,31 Florence Street,Craig Gaspar,2,4,171,1905,1,31 Florence Street West Perth WA 6005,577,-31.9379619,115.85025859999999,6005,1281000,House,850,2021-03,350,2021,WA,West Perth,0,0,1,0,0,0
350,76C Carr Street,Simon Pigliardo,2,3,149,2008,2,76C Carr Street West Perth WA 6005,193,-31.939012199999997,115.8512686,6005,880000,House,0,1900-01,351,2021,WA,West Perth,0,0,1,0,0,0
352,41 Cowle Street,not recorded,2,4,105,1920,1,41 Cowle Street West Perth WA 6005,890,-31.939870000000003,115.85406,6005,1230000,House,0,1900-01,353,2021,WA,West Perth,0,0,1,0,0,0
353,24 Florence Place,Peter Wright,2,3,159,1930,2,24 Florence Place West Perth WA 6005,187,-31.9369522,115.8516018,6005,740000,Townhouse,0,1900-01,354,2021,WA,West Perth,0,0,1,0,0,0
356,34A Cleaver Street,Louise Markovic,3,4,156,2020,2,34A Cleaver Street West Perth WA 6005,127,-31.9396315,115.8490571,6005,780000,Townhouse,0,1900-01,357,2021,WA,West Perth,0,0,1,0,0,0
357,34C Cleaver Street,Louise Markovic,2,3,143,2020,2,34C Cleaver Street West Perth WA 6005,118,-31.9396315,115.8490571,6005,750000,Townhouse,0,1900-01,358,2021,WA,West Perth,0,0,1,0,0,0
360,17/161 Charles Street,not recorded,1,2,73,1977,1,17/161 Charles Street West Perth WA 6005,73,-31.9383637,115.85231499999999,6005,260000,House,350,2011-05,361,2021,WA,West Perth,0,0,1,0,0,0
369,34D Cleaver Street,Richard Self,2,3,178,2020,2,34D Cleaver Street West Perth WA 6005,127,-31.9396315,115.8490571,6005,770000,Townhouse,0,1900-01,370,2020,WA,West Perth,0,0,1,0,0,0
373,189 Vincent Street,Matthew Jones,1,3,119,1920,2,189 Vincent Street West Perth WA 6005,402,-31.936682799999996,115.8557577,6005,675000,House,350,2019-09,374,2020,WA,West Perth,0,0,1,0,0,0
376,7/132 Carr Street,Steve Lorrimar,1,3,82,1976,2,7/132 Carr Street West Perth WA 6005,85,-31.937448600000003,115.84819070000002,6005,567500,Villa,0,1900-01,377,2020,WA,West Perth,0,0,1,0,0,0
377,25 Kingston Avenue,Jade Lippiatt,1,2,72,1935,0,25 Kingston Avenue West Perth WA 6005,201,-31.939017800000002,115.84737989999999,6005,680000,House,450,2018-05,378,2020,WA,West Perth,0,0,1,0,0,0
382,22A Kingston Avenue,not recorded,2,4,239,2020,2,22A Kingston Avenue West Perth WA 6005,379,-31.938770799999997,115.8478808,6005,1155500,House,0,1900-01,383,2020,WA,West Perth,0,0,1,0,0,0
396,29 Cowle Street,Theo Kouroulis,1,2,84,1910,2,29 Cowle Street West Perth WA 6005,381,-31.9399592,115.85479690000001,6005,725000,House,480,2020-02,397,2020,WA,West Perth,0,0,1,0,0,0
398,11 Florence Street,not recorded,1,3,158,1920,1,11 Florence Street West Perth WA 6005,369,-31.9386873,115.8503511,6005,925000,House,0,1900-01,399,2020,WA,West Perth,0,0,1,0,0,0
415,55 Kingston Avenue,not recorded,1,3,154,1930,1,55 Kingston Avenue West Perth WA 6005,549,-31.93885,115.8467466,6005,979000,House,0,1900-01,416,2020,WA,West Perth,0,0,1,0,0,0
417,25 Cowle Street,Claude Iaconi,1,3,132,1896,1,25 Cowle Street West Perth WA 6005,350,-31.94022,115.85475,6005,880000,House,0,1900-01,418,2020,WA,West Perth,0,0,1,0,0,0
418,35 Victoria Street,not recorded,2,2,98,1980,2,35 Victoria Street West Perth WA 6005,150,-31.9379005,115.8539209,6005,458000,Townhouse,0,1900-01,419,2020,WA,West Perth,0,0,1,0,0,0
421,16/11 Altona Street,not recorded,2,2,69,2004,1,16/11 Altona Street West Perth WA 6005,115,-31.951299600000006,115.83939879999998,6005,380000,House,525,2020-05,422,2020,WA,West Perth,0,0,1,0,0,0
424,61 Kingston Avenue,not recorded,1,2,86,1935,1,61 Kingston Avenue West Perth WA 6005,91,-31.938779999999998,115.84651000000001,6005,540000,House,0,1900-01,425,2020,WA,West Perth,0,0,1,0,0,0
437,20 Lawrence Avenue,not recorded,1,2,62,1915,0,20 Lawrence Avenue West Perth WA 6005,70,-31.945277899999997,115.8425256,6005,675000,House,0,1900-01,438,2020,WA,West Perth,0,0,1,0,0,0
591,47B Trafalgar Road,Brendan Smith,2,3,152,2000,1,47B Trafalgar Road East Perth WA 6004,530,-31.953670000000002,115.87995,6004,869000,House,520,2020-01,592,2021,WA,East Perth,0,1,0,0,0,0
597,16 Gardiner Street,not recorded,1,2,92,1930,1,16 Gardiner Street East Perth WA 6004,732,-31.9406893,115.8799709,6004,1000000,House,335,2016-04,598,2021,WA,East Perth,0,1,0,0,0,0
612,37 Arden Street,ANGELA SHENG,2,4,205,1996,2,37 Arden Street East Perth WA 6004,204,-31.953409999999998,115.88148999999999,6004,1685000,House,750,2015-08,613,2021,WA,East Perth,0,1,0,0,0,0
623,24A Kensington Street,Brendan Smith,3,3,166,2001,2,24A Kensington Street East Perth WA 6004,114,-31.949820000000003,115.87875,6004,952000,Townhouse,0,1900-01,624,2021,WA,East Perth,0,1,0,0,0,0
626,15 Haig Park Circle,Brendan Smith,3,4,300,2002,3,15 Haig Park Circle East Perth WA 6004,175,-31.953909999999997,115.87956000000001,6004,1900000,House,0,1900-01,627,2021,WA,East Perth,0,1,0,0,0,0
638,1 Gardiner Street,not recorded,1,3,148,1920,2,1 Gardiner Street East Perth WA 6004,883,-31.9417547,115.87983229999999,6004,1530000,House,0,1900-01,639,2021,WA,East Perth,0,1,0,0,0,0
670,6 Flagstaff Lane,Brendan Smith,2,3,165,1999,2,6 Flagstaff Lane East Perth WA 6004,160,-31.9512103,115.8794075,6004,1235000,House,700,2015-08,671,2021,WA,East Perth,0,1,0,0,0,0
672,12 Little Brown Street,not recorded,1,2,102,1997,1,12 Little Brown Street East Perth WA 6004,150,-31.951359999999998,115.87487,6004,585000,Townhouse,0,1900-01,673,2021,WA,East Perth,0,1,0,0,0,0
703,47 Wellington Street,not recorded,1,3,105,1920,1,47 Wellington Street East Perth WA 6004,617,-31.956698,115.87396399999999,6004,765000,House,0,1900-01,704,2021,WA,East Perth,0,1,0,0,0,0
754,45/188 Adelaide Terrace,not recorded,2,2,84,2007,1,45/188 Adelaide Terrace East Perth WA 6004,114,-31.9590609,115.8702443,6004,390000,House,450,2020-08,755,2020,WA,East Perth,0,1,0,0,0,0
765,11 Bakery Lane,not recorded,2,3,190,2003,2,11 Bakery Lane East Perth WA 6004,161,-31.951387699999998,115.8740102,6004,990000,House,800,2007-09,766,2020,WA,East Perth,0,1,0,0,0,0
792,4 Constitution Street,Peter Wright,2,3,110,1996,2,4 Constitution Street East Perth WA 6004,206,-31.954140000000002,115.8813,6004,719000,Townhouse,590,2019-11,793,2020,WA,East Perth,0,1,0,0,0,0
806,105 Zebina Street,Paul Owen,1,3,131,1930,3,105 Zebina Street East Perth WA 6004,491,-31.940443899999998,115.87881570000002,6004,802000,House,0,1900-01,807,2020,WA,East Perth,0,1,0,0,0,0
807,Lot 1 of 46 Joel Terrace,not recorded,2,3,200,1925,2,Lot 1 of 46 Joel Terrace East Perth WA 6004,216,-31.94308,115.87993,6004,440000,House,0,1900-01,808,2020,WA,East Perth,0,1,0,0,0,0
821,12 Wittenoom Street,not recorded,2,4,250,2002,3,12 Wittenoom Street East Perth WA 6004,234,-31.9548,115.87898999999999,6004,1190000,House,750,2012-01,822,2020,WA,East Perth,0,1,0,0,0,0
831,39/193 Hay Street,not recorded,1,2,70,2000,1,39/193 Hay Street East Perth WA 6004,95,-31.959162199999998,115.87320159999999,6004,258000,House,0,1900-01,832,2020,WA,East Perth,0,1,0,0,0,0
832,44 Tully Road,not recorded,2,3,209,2003,2,44 Tully Road East Perth WA 6004,246,-31.948933899999997,115.8796037,6004,1050000,House,0,1900-01,833,2020,WA,East Perth,0,1,0,0,0,0
834,50 Wittenoom Street,Brendan Smith,3,4,217,2003,2,50 Wittenoom Street East Perth WA 6004,198,-31.9537169,115.8756737,6004,950000,House,730,2020-03,835,2020,WA,East Perth,0,1,0,0,0,0
840,40 Kensington Street,not recorded,2,3,183,2001,2,40 Kensington Street East Perth WA 6004,237,-31.949869699999997,115.8776152,6004,950000,House,650,2011-10,841,2020,WA,East Perth,0,1,0,0,0,0
844,23 Victory Terrace,not recorded,3,3,245,2000,2,23 Victory Terrace East Perth WA 6004,161,-31.949882300000002,115.879849,6004,975000,House,1000,2016-11,845,2020,WA,East Perth,0,1,0,0,0,0
847,24 Victory Terrace,not recorded,3,4,309,2000,2,24 Victory Terrace East Perth WA 6004,285,-31.949738899999996,115.88036709999999,6004,1545000,House,0,1900-01,848,2020,WA,East Perth,0,1,0,0,0,0
864,306/251 Hay Street,not recorded,1,1,67,2007,0,306/251 Hay Street East Perth WA 6004,75,-31.958364899999996,115.8708987,6004,227000,House,310,2017-12,865,2020,WA,East Perth,0,1,0,0,0,0
866,17/39 Bronte Street,not recorded,2,3,105,1990,2,17/39 Bronte Street East Perth WA 6004,168,-31.955768,115.8745682,6004,445000,Townhouse,390,2020-04,867,2020,WA,East Perth,0,1,0,0,0,0
867,6/32 Fielder Street,not recorded,2,3,128,2007,2,6/32 Fielder Street East Perth WA 6004,210,-31.950757399999997,115.8733864,6004,640000,House,0,1900-01,868,2020,WA,East Perth,0,1,0,0,0,0
874,73 Fairway,Jack Bradshaw,1,2,131,1939,2,73 Fairway Crawley WA 6009,607,-31.982159600000003,115.8153668,6009,1180000,House,550,2021-08,875,2021,WA,Crawley,0,0,0,0,1,0
875,65 Fairway,Jack Bradshaw,1,2,77,1921,2,65 Fairway Crawley WA 6009,607,-31.981745500000002,115.8153668,6009,1225000,House,310,2008-06,876,2021,WA,Crawley,0,0,0,0,1,0
877,55 Fairway,Brian Neo,2,3,164,1948,2,55 Fairway Crawley WA 6009,607,-31.981051500000003,115.8153206,6009,1275000,House,0,1900-01,878,2021,WA,Crawley,0,0,0,0,1,0
878,6/9-11 Wingfield Avenue,Michelle Kerr,2,3,148,1972,3,6/9-11 Wingfield Avenue Crawley WA 6009,154,-31.97265,115.82405,6009,920000,House,0,1900-01,879,2021,WA,Crawley,0,0,0,0,1,0
882,7/131 Fairway,Michelle Kerr,2,3,130,2000,2,7/131 Fairway Crawley WA 6009,159,-31.9854781,115.8154361,6009,860000,House,670,2021-02,883,2021,WA,Crawley,0,0,0,0,1,0
884,5/20 Park Road,Belinda Airey,1,2,90,2004,1,5/20 Park Road Crawley WA 6009,86,-31.9747065,115.81402649999998,6009,639000,Townhouse,500,2010-11,885,2021,WA,Crawley,0,0,0,0,1,0
889,2/15 COOK STREET,Peter Zambotti,1,3,116,1981,1,2/15 COOK STREET Crawley WA 6009,119,-31.983743800000003,115.81617560000001,6009,635000,House,750,2012-03,890,2021,WA,Crawley,0,0,0,0,1,0
896,8E Park Road,not recorded,1,1,81,1999,1,8E Park Road Crawley WA 6009,116,-31.97478,115.81486000000001,6009,525000,House,500,2019-01,897,2020,WA,Crawley,0,0,0,0,1,0
898,1/31 Caporn Street,not recorded,1,3,102,1981,1,1/31 Caporn Street Crawley WA 6009,95,-31.984720000000003,115.81743,6009,530000,Townhouse,0,1900-01,899,2020,WA,Crawley,0,0,0,0,1,0
900,1/139 Fairway,not recorded,1,2,100,1978,2,1/139 Fairway Crawley WA 6009,95,-31.9859381,115.8153206,6009,540000,Townhouse,0,1900-01,901,2020,WA,Crawley,0,0,0,0,1,0
1120,95 Broadway,not recorded,3,5,268,1923,0,95 Broadway Nedlands WA 6009,883,-31.9827834,115.8142114,6009,2280000,House,995,2014-09,1121,2021,WA,Nedlands,0,0,0,0,0,1
1121,42 Kinninmont Avenue,Jac Fear,1,3,186,1950,1,42 Kinninmont Avenue Nedlands WA 6009,1012,-31.977642799999998,115.8049908,6009,2050000,House,0,1900-01,1122,2021,WA,Nedlands,0,0,0,0,0,1
1123,50 Kanimbla Road,David Airey,2,3,90,1985,2,50 Kanimbla Road Nedlands WA 6009,297,-31.9742262,115.8157976,6009,1000000,House,0,1900-01,1124,2021,WA,Nedlands,0,0,0,0,0,1
1124,16 Williams Road,not recorded,1,2,115,1936,1,16 Williams Road Nedlands WA 6009,455,-31.972035899999998,115.80954340000001,6009,1070000,House,450,2017-08,1125,2021,WA,Nedlands,0,0,0,0,0,1
1125,34 Bruce Street,Michelle Kerr,2,4,282,1938,6,34 Bruce Street Nedlands WA 6009,883,-31.982614899999998,115.8114614,6009,2480000,House,0,1900-01,1126,2021,WA,Nedlands,0,0,0,0,0,1
1126,29B Dalkeith Road,Michelle Kerr,2,3,186,1999,4,29B Dalkeith Road Nedlands WA 6009,312,-31.9787328,115.8020327,6009,1100000,House,900,2013-08,1127,2021,WA,Nedlands,0,0,0,0,0,1
1127,1B Rockton Road,not recorded,2,3,146,1989,1,1B Rockton Road Nedlands WA 6009,317,-31.9819076,115.7913111,6009,1175000,House,750,2020-03,1128,2021,WA,Nedlands,0,0,0,0,0,1
1128,135 Broadway,Tony Cowan,1,3,115,1918,2,135 Broadway Nedlands WA 6009,880,-31.9867903,115.81425759999999,6009,2375000,House,330,2020-04,1129,2021,WA,Nedlands,0,0,0,0,0,1
1129,23 Meriwa Street,Michelle Kerr,2,3,215,1950,2,23 Meriwa Street Nedlands WA 6009,513,-31.9729195,115.8100518,6009,1410000,House,800,2017-12,1130,2021,WA,Nedlands,0,0,0,0,0,1
1131,36 Archdeacon Street,Michelle Kerr,3,5,375,1950,2,36 Archdeacon Street Nedlands WA 6009,809,-31.9819191,115.8103753,6009,2980000,House,0,1900-01,1132,2021,WA,Nedlands,0,0,0,0,0,1
1133,4/14 Monash Avenue,Marie Staniland,1,3,109,1981,1,4/14 Monash Avenue Nedlands WA 6009,104,-31.970871000000002,115.81641259999999,6009,615000,Townhouse,0,1900-01,1134,2021,WA,Nedlands,0,0,0,0,0,1
1134,51 Stanley Street,not recorded,2,6,256,1949,2,51 Stanley Street Nedlands WA 6009,1012,-31.9843093,115.80480590000002,6009,1830000,House,920,2018-03,1135,2021,WA,Nedlands,0,0,0,0,0,1
1135,2 Thomas Street,Michelle Kerr,2,3,101,1945,2,2 Thomas Street Nedlands WA 6009,1046,-31.978799300000002,115.80834170000001,6009,1850000,House,0,1900-01,1136,2021,WA,Nedlands,0,0,0,0,0,1
1136,7/59 Dalkeith Road,Kate Gale,1,3,93,1978,1,7/59 Dalkeith Road Nedlands WA 6009,93,-31.980093100000005,115.8022618,6009,620000,Townhouse,390,2020-08,1137,2021,WA,Nedlands,0,0,0,0,0,1
1137,88 Bruce Street,Michelle Kerr,3,3,180,1950,2,88 Bruce Street Nedlands WA 6009,342,-31.989929999999998,115.81138,6009,1530000,House,0,1900-01,1138,2021,WA,Nedlands,0,0,0,0,0,1
1138,104 Williams Road,Alison Davies,1,2,93,1945,1,104 Williams Road Nedlands WA 6009,343,-31.977290000000004,115.80986000000001,6009,745000,House,380,2020-02,1139,2021,WA,Nedlands,0,0,0,0,0,1
1139,14 Karella Street,Susan James,3,3,205,1965,2,14 Karella Street Nedlands WA 6009,594,-31.973094500000002,115.8061001,6009,1450000,House,0,1900-01,1140,2021,WA,Nedlands,0,0,0,0,0,1
1140,14 Loch Street,Stuart Paterson,1,2,130,1920,1,14 Loch Street Nedlands WA 6009,696,-31.976624400000002,115.79165630000001,6009,950000,House,0,1900-01,1141,2021,WA,Nedlands,0,0,0,0,0,1
1141,15/26 Broome Street,Peter Clements,1,3,110,1976,1,15/26 Broome Street Nedlands WA 6009,110,-31.979340000000004,115.79901000000001,6009,555000,House,430,2016-09,1142,2021,WA,Nedlands,0,0,0,0,0,1
1142,66 Bruce Street,not recorded,3,6,403,1930,2,66 Bruce Street Nedlands WA 6009,880,-31.9856994,115.811369,6009,2250000,House,0,1900-01,1143,2021,WA,Nedlands,0,0,0,0,0,1
1143,2/16 Monash Avenue,not recorded,1,3,107,1981,1,2/16 Monash Avenue Nedlands WA 6009,107,-31.97087,115.81617,6009,615000,Townhouse,495,2015-10,1144,2021,WA,Nedlands,0,0,0,0,0,1
1144,16 Mountjoy Road,Mitra Roshan,2,4,210,1960,2,16 Mountjoy Road Nedlands WA 6009,1012,-31.9811875,115.80173229999998,6009,2416000,House,0,1900-01,1145,2021,WA,Nedlands,0,0,0,0,0,1
1145,35 Langham Street,Michelle Kerr,2,4,220,1929,2,35 Langham Street Nedlands WA 6009,908,-31.9765359,115.8066547,6009,1780000,House,0,1900-01,1146,2021,WA,Nedlands,0,0,0,0,0,1
1146,45 Webster Street,James Thompson,3,5,379,1935,2,45 Webster Street Nedlands WA 6009,1012,-31.9833499,115.806077,6009,2928888,House,1900,2019-05,1147,2021,WA,Nedlands,0,0,0,0,0,1
1147,45 Viewway,Michelle Kerr,2,4,227,1937,2,45 Viewway Nedlands WA 6009,880,-31.9855118,115.8119467,6009,1900000,House,0,1900-01,1148,2021,WA,Nedlands,0,0,0,0,0,1
1148,25 Elizabeth Street,Michelle Kerr,2,4,280,1950,4,25 Elizabeth Street Nedlands WA 6009,809,-31.983496600000002,115.8094047,6009,2200000,House,0,1900-01,1149,2021,WA,Nedlands,0,0,0,0,0,1
1149,31 Napier Street,not recorded,2,4,317,2012,2,31 Napier Street Nedlands WA 6009,696,-31.9780385,115.7932509,6009,2350000,House,850,2008-10,1150,2021,WA,Nedlands,0,0,0,0,0,1
1150,43 Viewway,Michelle Kerr,2,4,170,1975,2,43 Viewway Nedlands WA 6009,880,-31.985336100000005,115.8119929,6009,1680000,House,800,2009-01,1151,2020,WA,Nedlands,0,0,0,0,0,1
1151,61 Meriwa Street,not recorded,1,2,98,1945,1,61 Meriwa Street Nedlands WA 6009,456,-31.975331699999998,115.81000549999999,6009,1155000,House,550,2019-03,1152,2020,WA,Nedlands,0,0,0,0,0,1
1152,1/28 Stirling Highway,Peter Clements,2,4,109,1979,1,1/28 Stirling Highway Nedlands WA 6009,109,-31.9784269,115.81021270000001,6009,720000,House,0,1900-01,1153,2020,WA,Nedlands,0,0,0,0,0,1
1153,81 Mountjoy Road,not recorded,3,4,395,2012,1,81 Mountjoy Road Nedlands WA 6009,1013,-31.9875547,115.80092350000001,6009,2750000,House,500,2010-11,1154,2020,WA,Nedlands,0,0,0,0,0,1
1154,31 Waroonga Road,not recorded,2,3,147,1939,4,31 Waroonga Road Nedlands WA 6009,923,-31.9848058,115.7926038,6009,1840000,House,950,2020-12,1155,2020,WA,Nedlands,0,0,0,0,0,1
1155,15 Dalkeith Road,not recorded,2,4,238,2011,2,15 Dalkeith Road Nedlands WA 6009,1012,-31.9771739,115.802287,6009,1900000,House,0,1900-01,1156,2020,WA,Nedlands,0,0,0,0,0,1
1156,46 Rockton Road,Ken Baker,1,4,220,1967,6,46 Rockton Road Nedlands WA 6009,923,-31.9856918,115.7919567,6009,1628000,House,0,1900-01,1157,2020,WA,Nedlands,0,0,0,0,0,1
1157,8/111 Stirling Highway,not recorded,1,3,73,1979,1,8/111 Stirling Highway Nedlands WA 6009,73,-31.979340000000004,115.80057,6009,470000,House,400,2017-04,1158,2020,WA,Nedlands,0,0,0,0,0,1
1158,36 Webster Street,not recorded,1,4,133,1933,1,36 Webster Street Nedlands WA 6009,1012,-31.982313899999998,115.8067471,6009,1840000,House,0,1900-01,1159,2020,WA,Nedlands,0,0,0,0,0,1
1159,4/2a Marita Road,Paul Owen,1,2,77,1965,1,4/2a Marita Road Nedlands WA 6009,83,-31.980836600000004,115.79675049999999,6009,550000,Townhouse,625,2019-12,1160,2020,WA,Nedlands,0,0,0,0,0,1
1160,17 Kinninmont Avenue,not recorded,2,3,134,1937,1,17 Kinninmont Avenue Nedlands WA 6009,1034,-31.974724199999997,115.8044131,6009,1490000,House,0,1900-01,1161,2020,WA,Nedlands,0,0,0,0,0,1
1161,9/192 Hampden Road,not recorded,2,3,108,1999,2,9/192 Hampden Road Nedlands WA 6009,152,-31.973727,115.81386470000001,6009,512000,Townhouse,400,2017-08,1162,2020,WA,Nedlands,0,0,0,0,0,1
1162,25B Dalkeith Road,not recorded,2,3,80,1965,2,25B Dalkeith Road Nedlands WA 6009,327,-31.97839,115.80221999999999,6009,1750000,House,0,1900-01,1163,2020,WA,Nedlands,0,0,0,0,0,1
1163,25A Dalkeith Road,not recorded,2,3,94,1965,2,25A Dalkeith Road Nedlands WA 6009,393,-31.97839,115.80221999999999,6009,1750000,House,500,2014-08,1164,2020,WA,Nedlands,0,0,0,0,0,1
1165,39 Marita Road,not recorded,2,3,137,1959,2,39 Marita Road Nedlands WA 6009,923,-31.9849799,115.79609350000001,6009,1610000,House,825,2020-11,1166,2020,WA,Nedlands,0,0,0,0,0,1
1166,65 Mountjoy Road,not recorded,5,5,384,1937,2,65 Mountjoy Road Nedlands WA 6009,1012,-31.9859038,115.8009928,6009,2799000,House,0,1900-01,1167,2020,WA,Nedlands,0,0,0,0,0,1
1167,73 Smyth Road,Mitra Roshan,2,3,195,1954,1,73 Smyth Road Nedlands WA 6009,1041,-31.974540299999997,115.80554540000001,6009,1360000,House,650,2019-04,1168,2020,WA,Nedlands,0,0,0,0,0,1
1168,95 Smyth Road,not recorded,2,3,188,1925,2,95 Smyth Road Nedlands WA 6009,1020,-31.9773924,115.80547609999999,6009,1620000,House,0,1900-01,1169,2020,WA,Nedlands,0,0,0,0,0,1
1170,23B Bulimba Road,Murray Peter,2,3,180,1958,2,23B Bulimba Road Nedlands WA 6009,519,-31.983729999999998,115.79368000000001,6009,1058000,House,0,1900-01,1171,2020,WA,Nedlands,0,0,0,0,0,1
1172,48 Doonan Road,not recorded,2,3,242,1950,3,48 Doonan Road Nedlands WA 6009,997,-31.985049699999998,115.79796540000001,6009,1650000,House,575,2019-07,1173,2020,WA,Nedlands,0,0,0,0,0,1
1173,1/3 VIncent Street,not recorded,1,2,69,1979,1,1/3 VIncent Street Nedlands WA 6009,69,-31.9805,115.79823999999999,6009,510000,Townhouse,385,2009-10,1174,2020,WA,Nedlands,0,0,0,0,0,1
1174,19/28 Stirling Highway,not recorded,1,2,90,1979,1,19/28 Stirling Highway Nedlands WA 6009,102,-31.9782863,115.8104797,6009,515000,Townhouse,400,2016-07,1175,2020,WA,Nedlands,0,0,0,0,0,1
1175,29 Portland Street,not recorded,1,3,181,1936,2,29 Portland Street Nedlands WA 6009,907,-31.975803600000003,115.80783329999998,6009,1635000,House,750,2019-02,1176,2020,WA,Nedlands,0,0,0,0,0,1
1176,81 Vincent Street,not recorded,2,4,195,1939,2,81 Vincent Street Nedlands WA 6009,1165,-31.9881595,115.79852,6009,1730000,House,0,1900-01,1177,2020,WA,Nedlands,0,0,0,0,0,1
1177,2/26 Broome Street,not recorded,1,2,64,1976,1,2/26 Broome Street Nedlands WA 6009,82,-31.979340000000004,115.79901000000001,6009,430000,Townhouse,0,1900-01,1178,2020,WA,Nedlands,0,0,0,0,0,1
1178,2/63 Stirling Highway,not recorded,1,2,70,1949,0,2/63 Stirling Highway Nedlands WA 6009,88,-31.982061600000005,115.78519750000001,6009,430000,Townhouse,350,2018-09,1179,2020,WA,Nedlands,0,0,0,0,0,1
1179,40 Boronia Avenue,not recorded,3,5,248,1938,6,40 Boronia Avenue Nedlands WA 6009,1013,-31.9774495,115.803974,6009,1820000,House,1200,2020-10,1180,2020,WA,Nedlands,0,0,0,0,0,1
1181,39 Tyrell Street,not recorded,3,5,285,1930,2,39 Tyrell Street Nedlands WA 6009,1012,-31.9828434,115.80850339999999,6009,1900000,House,0,1900-01,1182,2020,WA,Nedlands,0,0,0,0,0,1
1182,10/26 Broome Street,not recorded,1,3,110,1976,2,10/26 Broome Street Nedlands WA 6009,110,-31.979340000000004,115.79901000000001,6009,520000,Townhouse,440,2019-05,1183,2020,WA,Nedlands,0,0,0,0,0,1
1183,51 Florence Road,not recorded,2,4,215,1950,2,51 Florence Road Nedlands WA 6009,1012,-31.984984499999996,115.80360420000001,6009,1625000,House,950,2020-07,1184,2020,WA,Nedlands,0,0,0,0,0,1
1184,22 Ord Street,not recorded,3,5,289,2019,3,22 Ord Street Nedlands WA 6009,696,-31.977228600000004,115.79516909999998,6009,1722500,House,1300,2020-05,1185,2020,WA,Nedlands,0,0,0,0,0,1
1185,70 Vincent Street,not recorded,3,5,436,2015,2,70 Vincent Street Nedlands WA 6009,1133,-31.987522,115.79916709999999,6009,2720000,House,0,1900-01,1186,2020,WA,Nedlands,0,0,0,0,0,1
1187,22 Kingston Street,not recorded,2,4,355,1977,4,22 Kingston Street Nedlands WA 6009,1277,-31.9670778,115.8135874,6009,2150000,House,1800,2020-03,1188,2020,WA,Nedlands,0,0,0,0,0,1
1188,16 Viewway,not recorded,2,4,171,1972,2,16 Viewway Nedlands WA 6009,880,-31.982440999999998,115.81254750000001,6009,1500000,House,625,2020-04,1189,2020,WA,Nedlands,0,0,0,0,0,1
1189,3/29 The Avenue,not recorded,2,2,131,2002,2,3/29 The Avenue Nedlands WA 6009,158,-31.9884106,115.814939,6009,875000,Townhouse,0,1900-01,1190,2020,WA,Nedlands,0,0,0,0,0,1
1190,20 Kingsway,not recorded,1,4,177,1950,1,20 Kingsway Nedlands WA 6009,880,-31.9822827,115.8136568,6009,1800000,House,850,2014-08,1191,2020,WA,Nedlands,0,0,0,0,0,1
1191,47 Bulimba Road,not recorded,2,4,246,1939,6,47 Bulimba Road Nedlands WA 6009,923,-31.986113,115.7937362,6009,2100000,House,1350,2015-07,1192,2020,WA,Nedlands,0,0,0,0,0,1
1193,55 Kingsway,not recorded,2,3,262,1999,2,55 Kingsway Nedlands WA 6009,875,-31.986782899999998,115.81314840000002,6009,1975000,House,0,1900-01,1194,2020,WA,Nedlands,0,0,0,0,0,1
1194,66 Louise Street,not recorded,3,4,377,2007,2,66 Louise Street Nedlands WA 6009,1012,-31.9859157,115.8004613,6009,2100000,House,2000,2011-02,1195,2020,WA,Nedlands,0,0,0,0,0,1
1195,62 Williams Road,not recorded,3,4,203,1937,1,62 Williams Road Nedlands WA 6009,455,-31.974883600000002,115.8095896,6009,1205000,House,800,2017-11,1196,2020,WA,Nedlands,0,0,0,0,0,1
1197,18 Webster Street,not recorded,3,4,212,1950,2,18 Webster Street Nedlands WA 6009,1012,-31.980476,115.806724,6009,1970000,House,0,1900-01,1198,2020,WA,Nedlands,0,0,0,0,0,1
1198,52 The Avenue,not recorded,3,4,322,2012,2,52 The Avenue Nedlands WA 6009,683,-31.9904005,115.8138416,6009,2600000,House,2300,2017-12,1199,2020,WA,Nedlands,0,0,0,0,0,1
1199,97 Smyth Road,not recorded,2,4,217,1932,1,97 Smyth Road Nedlands WA 6009,1012,-31.977605199999996,115.80554540000001,6009,1600000,House,650,2021-02,1200,2020,WA,Nedlands,0,0,0,0,0,1
1200,6 Baird Avenue,not recorded,3,3,257,2019,2,6 Baird Avenue Nedlands WA 6009,1012,-31.9763205,115.8016399,6009,2300000,House,0,1900-01,1201,2020,WA,Nedlands,0,0,0,0,0,1
1201,2/24 Tareena Street,not recorded,1,3,116,1984,1,2/24 Tareena Street Nedlands WA 6009,109,-31.97278,115.81485,6009,600000,Townhouse,500,2010-11,1202,2020,WA,Nedlands,0,0,0,0,0,1
1202,67 Dalkeith Road,not recorded,2,4,220,1950,2,67 Dalkeith Road Nedlands WA 6009,1012,-31.981055800000004,115.8021483,6009,1615000,House,0,1900-01,1203,2020,WA,Nedlands,0,0,0,0,0,1
1203,27 Edward Street,not recorded,3,5,409,2006,3,27 Edward Street Nedlands WA 6009,964,-31.980558600000002,115.8112996,6009,2350000,House,0,1900-01,1204,2020,WA,Nedlands,0,0,0,0,0,1
1204,22 Edward Street,not recorded,3,4,143,1940,4,22 Edward Street Nedlands WA 6009,809,-31.9809765,115.81185430000001,6009,1720000,House,0,1900-01,1205,2020,WA,Nedlands,0,0,0,0,0,1
1205,21 Viewway,not recorded,2,5,365,1989,2,21 Viewway Nedlands WA 6009,880,-31.983177,115.8119236,6009,1775000,House,0,1900-01,1206,2020,WA,Nedlands,0,0,0,0,0,1
1206,93 Stanley Street,not recorded,2,3,296,2010,6,93 Stanley Street Nedlands WA 6009,1012,-31.988264899999997,115.80489840000001,6009,2775000,House,0,1900-01,1207,2020,WA,Nedlands,0,0,0,0,0,1
1207,30 DOONAN ROAD,not recorded,2,4,287,1935,2,30 DOONAN ROAD Nedlands WA 6009,994,-31.9834131,115.797873,6009,2000000,House,1300,2019-05,1208,2020,WA,Nedlands,0,0,0,0,0,1
1208,89 Clifton Street,not recorded,1,3,124,1945,1,89 Clifton Street Nedlands WA 6009,468,-31.9765929,115.8112534,6009,1050000,House,0,1900-01,1209,2020,WA,Nedlands,0,0,0,0,0,1
1209,82 Webster Street,not recorded,2,4,356,1935,2,82 Webster Street Nedlands WA 6009,1012,-31.986849300000003,115.80683959999999,6009,2700000,House,1150,2008-11,1210,2020,WA,Nedlands,0,0,0,0,0,1
1210,12 Napier Street,not recorded,2,4,178,1920,2,12 Napier Street Nedlands WA 6009,696,-31.9765168,115.7940598,6009,1200000,House,0,1900-01,1211,2020,WA,Nedlands,0,0,0,0,0,1
1211,24 Clark Street,not recorded,1,2,100,1926,1,24 Clark Street Nedlands WA 6009,911,-31.9798934,115.8124551,6009,1820000,House,400,2019-12,1212,2020,WA,Nedlands,0,0,0,0,0,1
1212,5/111 Stirling Highway,not recorded,1,2,72,1979,2,5/111 Stirling Highway Nedlands WA 6009,72,-31.979340000000004,115.80057,6009,460000,Townhouse,350,2016-11,1213,2020,WA,Nedlands,0,0,0,0,0,1
1213,1/26 Broome Street,not recorded,1,2,65,1980,4,1/26 Broome Street Nedlands WA 6009,65,-31.979340000000004,115.79901000000001,6009,490000,Townhouse,0,1900-01,1214,2020,WA,Nedlands,0,0,0,0,0,1
1214,32 Kinninmont Avenue,not recorded,3,5,291,1952,2,32 Kinninmont Avenue Nedlands WA 6009,1012,-31.9764631,115.8050832,6009,2350000,House,0,1900-01,1215,2020,WA,Nedlands,0,0,0,0,0,1
1215,82 Bruce Street,not recorded,2,3,141,1970,2,82 Bruce Street Nedlands WA 6009,885,-31.9893392,115.81148449999999,6009,1325000,House,0,1900-01,1216,2020,WA,Nedlands,0,0,0,0,0,1
1216,44 Bulimba Road,not recorded,3,5,289,1940,2,44 Bulimba Road Nedlands WA 6009,923,-31.985775399999994,115.7943371,6009,2225000,House,0,1900-01,1217,2020,WA,Nedlands,0,0,0,0,0,1
1217,27 Megalong Street,not recorded,1,3,119,1916,4,27 Megalong Street Nedlands WA 6009,491,-31.973056,115.816476,6009,1050000,House,550,2020-01,1218,2020,WA,Nedlands,0,0,0,0,0,1
1218,2B Bulimba Road,not recorded,1,2,124,1985,1,2B Bulimba Road Nedlands WA 6009,124,-31.98155,115.79438,6009,830000,House,0,1900-01,1219,2020,WA,Nedlands,0,0,0,0,0,1
1219,1 Betty Street,not recorded,1,3,138,1946,1,1 Betty Street Nedlands WA 6009,799,-31.98668,115.79624,6009,1420000,House,0,1900-01,1220,2020,WA,Nedlands,0,0,0,0,0,1
1220,26 Waroonga Road,not recorded,4,6,209,1905,2,26 Waroonga Road Nedlands WA 6009,923,-31.9841212,115.79318159999998,6009,2300000,House,0,1900-01,1221,2020,WA,Nedlands,0,0,0,0,0,1
1221,145 Dalkeith Road,not recorded,3,4,245,1939,1,145 Dalkeith Road Nedlands WA 6009,1153,-31.988495899999997,115.8023101,6009,1990050,House,0,1900-01,1222,2020,WA,Nedlands,0,0,0,0,0,1
1222,43 Mountjoy Road,not recorded,2,4,312,1960,2,43 Mountjoy Road Nedlands WA 6009,1012,-31.983957300000004,115.8009928,6009,1650000,House,0,1900-01,1223,2020,WA,Nedlands,0,0,0,0,0,1
1376,43 John Street,Claude Iaconi,2,2,116,1996,1,43 John Street Northbridge WA 6003,174,-31.945219399999996,115.853374,6003,620000,Townhouse,0,1900-01,1377,2021,WA,Northbridge,0,0,0,1,0,0
1384,16 Kakulas Crescent,Claude Iaconi,2,3,250,2005,2,16 Kakulas Crescent Northbridge WA 6003,246,-31.9452293,115.85760970000001,6003,1250000,House,0,1900-01,1385,2021,WA,Northbridge,0,0,0,1,0,0
1389,107/228 James Street,not recorded,2,3,123,1995,1,107/228 James Street Northbridge WA 6003,158,-31.946032000000002,115.8532393,6003,415000,Townhouse,0,1900-01,1390,2020,WA,Northbridge,0,0,0,1,0,0
1399,8 Little Shenton Lane,not recorded,1,2,94,1996,1,8 Little Shenton Lane Northbridge WA 6003,138,-31.94605,115.85411,6003,470000,Townhouse,400,2017-06,1400,2020,WA,Northbridge,0,0,0,1,0,0
